{
   "type": "FeatureCollection",
   "features": [
  {
    "type": "Feature",
    "geometry": {
       "type": "Point",
       "coordinates":  [ 137.569193,34.686293 ]
    },
    "properties": {
    "HID":1000,
    "Type":"介護施設",
    "SubType":"通所介護",
    "Name":"ＳＳＫＣ機能訓練センターあらい",
    "TEL":"053-595-3120",
    "Add1":"静岡県湖西市",
    "Add2":"新居町新居666-1",
    "url":"",
    "image":""
    }
  },
  {
    "type": "Feature",
    "geometry": {
       "type": "Point",
       "coordinates":  [ 137.576253,34.686138 ]
    },
    "properties": {
    "HID":1001,
    "Type":"介護施設",
    "SubType":"通所介護",
    "Name":"あらいデイサービスセンター",
    "TEL":"053-594-7762",
    "Add1":"静岡県湖西市",
    "Add2":"新居町新居1800-1",
    "url":"",
    "image":""
    }
  },
  {
    "type": "Feature",
    "geometry": {
       "type": "Point",
       "coordinates":  [ 137.500881,34.721111 ]
    },
    "properties": {
    "HID":1002,
    "Type":"介護施設",
    "SubType":"グループホーム",
    "Name":"おかさきグループホーム",
    "TEL":"053-573-3800",
    "Add1":"静岡県湖西市",
    "Add2":"岡崎949-1",
    "url":"",
    "image":""
    }
  },
  {
    "type": "Feature",
    "geometry": {
       "type": "Point",
       "coordinates":  [ 137.500881,34.721111 ]
    },
    "properties": {
    "HID":1003,
    "Type":"介護施設",
    "SubType":"小規模多機能",
    "Name":"おかさき小規模多機能ホーム",
    "TEL":"053-573-3800",
    "Add1":"静岡県湖西市",
    "Add2":"岡崎949-1",
    "url":"",
    "image":""
    }
  },
  {
    "type": "Feature",
    "geometry": {
       "type": "Point",
       "coordinates":  [ 137.553174,34.714126 ]
    },
    "properties": {
    "HID":1004,
    "Type":"介護施設",
    "SubType":"通所介護",
    "Name":"ケアステーションあさひ湖西",
    "TEL":"053-574-2720",
    "Add1":"静岡県湖西市",
    "Add2":"鷲津2688-1",
    "url":"",
    "image":""
    }
  },
  {
    "type": "Feature",
    "geometry": {
       "type": "Point",
       "coordinates":  [ 137.536536,34.740871 ]
    },
    "properties": {
    "HID":1005,
    "Type":"介護施設",
    "SubType":"訪問介護",
    "Name":"こさいホームヘルパーステーション",
    "TEL":"053-573-2620",
    "Add1":"静岡県湖西市",
    "Add2":"新所838",
    "url":"",
    "image":""
    }
  },
  {
    "type": "Feature",
    "geometry": {
       "type": "Point",
       "coordinates":  [ 137.4934506,34.7235747 ]
    },
    "properties": {
    "HID":1006,
    "Type":"介護施設",
    "SubType":"通所リハビリ",
    "Name":"こでまり",
    "TEL":"053-573-0088",
    "Add1":"静岡県湖西市",
    "Add2":"新所岡﨑梅田入会地15-70",
    "url":"",
    "image":""
    }
  },
  {
    "type": "Feature",
    "geometry": {
       "type": "Point",
       "coordinates":  [ 137.570406,34.688595 ]
    },
    "properties": {
    "HID":1007,
    "Type":"介護施設",
    "SubType":"グループホーム",
    "Name":"サンシティあらい",
    "TEL":"053-595-0050",
    "Add1":"静岡県湖西市",
    "Add2":"新居町新居117-3",
    "url":"",
    "image":""
    }
  },
  {
    "type": "Feature",
    "geometry": {
       "type": "Point",
       "coordinates":  [ 137.570406,34.688595 ]
    },
    "properties": {
    "HID":1008,
    "Type":"介護施設",
    "SubType":"小規模多機能",
    "Name":"サンシティあらい",
    "TEL":"053-595-0050",
    "Add1":"静岡県湖西市",
    "Add2":"新居町新居117-3",
    "url":"",
    "image":""
    }
  },
  {
    "type": "Feature",
    "geometry": {
       "type": "Point",
       "coordinates":  [ 137.557538,34.709824 ]
    },
    "properties": {
    "HID":1009,
    "Type":"介護施設",
    "SubType":"ショートステイ",
    "Name":"ショートステイ恵翔苑",
    "TEL":"053-595-1111",
    "Add1":"静岡県湖西市",
    "Add2":"新居町中之郷3636-21",
    "url":"",
    "image":""
    }
  },
  {
    "type": "Feature",
    "geometry": {
       "type": "Point",
       "coordinates":  [ 137.510673,34.755366 ]
    },
    "properties": {
    "HID":1010,
    "Type":"介護施設",
    "SubType":"ショートステイ",
    "Name":"ショートステイ湖西白萩",
    "TEL":"053-573-2000",
    "Add1":"静岡県湖西市",
    "Add2":"太田450-1",
    "url":"",
    "image":""
    }
  },
  {
    "type": "Feature",
    "geometry": {
       "type": "Point",
       "coordinates":  [ 137.548299,34.711107 ]
    },
    "properties": {
    "HID":1011,
    "Type":"介護施設",
    "SubType":"福祉用具（貸与・販売）",
    "Name":"ダスキンヘルスレント浜名湖ステーション",
    "TEL":"053-576-8200",
    "Add1":"静岡県湖西市",
    "Add2":"鷲津1191番地１サンレイク和泉103",
    "url":"",
    "image":""
    }
  },
  {
    "type": "Feature",
    "geometry": {
       "type": "Point",
       "coordinates":  [ 137.556179,34.70681 ]
    },
    "properties": {
    "HID":1012,
    "Type":"介護施設",
    "SubType":"通所介護",
    "Name":"デイサービス  のどか",
    "TEL":"053-594-8110",
    "Add1":"静岡県湖西市",
    "Add2":"新居町中之郷1605-13",
    "url":"",
    "image":""
    }
  },
  {
    "type": "Feature",
    "geometry": {
       "type": "Point",
       "coordinates":  [ 137.570406,34.688595 ]
    },
    "properties": {
    "HID":1013,
    "Type":"介護施設",
    "SubType":"通所介護",
    "Name":"デイサービス サンシティあらい",
    "TEL":"053-595-0777",
    "Add1":"静岡県湖西市",
    "Add2":"新居町新居117-3",
    "url":"",
    "image":""
    }
  },
  {
    "type": "Feature",
    "geometry": {
       "type": "Point",
       "coordinates":  [ 137.565426,34.692564 ]
    },
    "properties": {
    "HID":1014,
    "Type":"介護施設",
    "SubType":"通所介護",
    "Name":"デイサービスあおいくま",
    "TEL":"053-570-3664",
    "Add1":"静岡県湖西市",
    "Add2":"新居町新居896-69",
    "url":"",
    "image":""
    }
  },
  {
    "type": "Feature",
    "geometry": {
       "type": "Point",
       "coordinates":  [ 137.542669,34.715314 ]
    },
    "properties": {
    "HID":1015,
    "Type":"介護施設",
    "SubType":"通所介護",
    "Name":"デイサービスすず",
    "TEL":"053-415-8400",
    "Add1":"静岡県湖西市",
    "Add2":"鷲津1829-2",
    "url":"",
    "image":""
    }
  },
  {
    "type": "Feature",
    "geometry": {
       "type": "Point",
       "coordinates":  [ 137.514224,34.723453 ]
    },
    "properties": {
    "HID":1016,
    "Type":"介護施設",
    "SubType":"通所介護",
    "Name":"デイサービスセンター ひなたぼっこ",
    "TEL":"053-578-1351",
    "Add1":"静岡県湖西市",
    "Add2":"岡崎1708-4",
    "url":"",
    "image":""
    }
  },
  {
    "type": "Feature",
    "geometry": {
       "type": "Point",
       "coordinates":  [ 137.557538,34.709824 ]
    },
    "properties": {
    "HID":1017,
    "Type":"介護施設",
    "SubType":"通所介護",
    "Name":"デイサービスセンター　恵翔苑",
    "TEL":"053-595-1111",
    "Add1":"静岡県湖西市",
    "Add2":"新居町中之郷3636-21",
    "url":"",
    "image":""
    }
  },
  {
    "type": "Feature",
    "geometry": {
       "type": "Point",
       "coordinates":  [ 137.510673,34.755366 ]
    },
    "properties": {
    "HID":1018,
    "Type":"介護施設",
    "SubType":"通所介護",
    "Name":"デイサービスセンター 湖西白萩",
    "TEL":"053-573-2000",
    "Add1":"静岡県湖西市",
    "Add2":"太田450-1",
    "url":"",
    "image":""
    }
  },
  {
    "type": "Feature",
    "geometry": {
       "type": "Point",
       "coordinates":  [ 137.593034,34.693743 ]
    },
    "properties": {
    "HID":1019,
    "Type":"介護施設",
    "SubType":"通所介護",
    "Name":"デイサービス郷美の浜",
    "TEL":"053-592-8110",
    "Add1":"静岡県湖西市",
    "Add2":"新居町新居3394-4",
    "url":"",
    "image":""
    }
  },
  {
    "type": "Feature",
    "geometry": {
       "type": "Point",
       "coordinates":  [ 137.531434,34.713388 ]
    },
    "properties": {
    "HID":1020,
    "Type":"介護施設",
    "SubType":"通所介護",
    "Name":"デイサービス陽菜",
    "TEL":"053-574-1550",
    "Add1":"静岡県湖西市",
    "Add2":"古見124-4",
    "url":"",
    "image":"https://scontent-nrt1-1.xx.fbcdn.net/hphotos-xtp1/v/t34.0-12/12182243_738766216255455_1381965340_n.jpg?oh=c80950cdf7b20b345d9cf6dd4f891e0c&oe=5635A966"
    }
  },
  {
    "type": "Feature",
    "geometry": {
       "type": "Point",
       "coordinates":  [ 137.545711,34.713322 ]
    },
    "properties": {
    "HID":1021,
    "Type":"介護施設",
    "SubType":"通所介護",
    "Name":"ふじの花通所介護事業所",
    "TEL":"053-576-4687",
    "Add1":"静岡県湖西市",
    "Add2":"鷲津1095-13",
    "url":"",
    "image":""
    }
  },
  {
    "type": "Feature",
    "geometry": {
       "type": "Point",
       "coordinates":  [ 137.545711,34.713322 ]
    },
    "properties": {
    "HID":1022,
    "Type":"介護施設",
    "SubType":"訪問介護",
    "Name":"ふじの花訪問介護事業所",
    "TEL":"053-576-4687",
    "Add1":"静岡県湖西市",
    "Add2":"鷲津1095-13",
    "url":"",
    "image":""
    }
  },
  {
    "type": "Feature",
    "geometry": {
       "type": "Point",
       "coordinates":  [ 137.502623,34.717095 ]
    },
    "properties": {
    "HID":1023,
    "Type":"介護施設",
    "SubType":"通所リハビリ",
    "Name":"まんさくの里",
    "TEL":"053-572-3911",
    "Add1":"静岡県湖西市",
    "Add2":"岡崎1353-1",
    "url":"",
    "image":"https://scontent-nrt1-1.xx.fbcdn.net/hphotos-xtf1/v/t34.0-12/12201035_738766006255476_987090057_n.jpg?oh=ff0aefb7eb469b9889babf17a633213a&oe=563561C8"
    }
  },
  {
    "type": "Feature",
    "geometry": {
       "type": "Point",
       "coordinates":  [ 137.593034,34.693743 ]
    },
    "properties": {
    "HID":1024,
    "Type":"介護施設",
    "SubType":"通所介護",
    "Name":"リビングデイサービスラルゴ",
    "TEL":"053-592-8110",
    "Add1":"静岡県湖西市",
    "Add2":"新居町新居3394-4",
    "url":"",
    "image":""
    }
  },
  {
    "type": "Feature",
    "geometry": {
       "type": "Point",
       "coordinates":  [ 137.546785,34.720708 ]
    },
    "properties": {
    "HID":1025,
    "Type":"介護施設",
    "SubType":"グループホーム",
    "Name":"愛の家グループホーム湖西",
    "TEL":"053-574-0600",
    "Add1":"静岡県湖西市",
    "Add2":"鷲津2522-33",
    "url":"",
    "image":""
    }
  },
  {
    "type": "Feature",
    "geometry": {
       "type": "Point",
       "coordinates":  [ 137.498993,34.699608 ]
    },
    "properties": {
    "HID":1026,
    "Type":"介護施設",
    "SubType":"グループホーム",
    "Name":"一円荘グループホーム",
    "TEL":"053-579-3901",
    "Add1":"静岡県湖西市",
    "Add2":"白須賀3986-7",
    "url":"",
    "image":""
    }
  },
  {
    "type": "Feature",
    "geometry": {
       "type": "Point",
       "coordinates":  [ 137.498993,34.699608 ]
    },
    "properties": {
    "HID":1027,
    "Type":"介護施設",
    "SubType":"通所介護",
    "Name":"一円荘デイサービスセンター",
    "TEL":"053-579-3901",
    "Add1":"静岡県湖西市",
    "Add2":"白須賀3986-7",
    "url":"",
    "image":""
    }
  },
  {
    "type": "Feature",
    "geometry": {
       "type": "Point",
       "coordinates":  [ 137.498993,34.699608 ]
    },
    "properties": {
    "HID":1028,
    "Type":"介護施設",
    "SubType":"小規模多機能",
    "Name":"一円荘小規模多機能ホーム",
    "TEL":"053-579-3901",
    "Add1":"静岡県湖西市",
    "Add2":"白須賀3986-7",
    "url":"",
    "image":""
    }
  },
  {
    "type": "Feature",
    "geometry": {
       "type": "Point",
       "coordinates":  [ 137.568304,34.693695 ]
    },
    "properties": {
    "HID":1029,
    "Type":"介護施設",
    "SubType":"通所介護",
    "Name":"駅前デイサービス健康広場",
    "TEL":"053-594-6226",
    "Add1":"静岡県湖西市",
    "Add2":"新居町新居3379-11 ",
    "url":"",
    "image":""
    }
  },
  {
    "type": "Feature",
    "geometry": {
       "type": "Point",
       "coordinates":  [ 137.560543,34.687142 ]
    },
    "properties": {
    "HID":1030,
    "Type":"介護施設",
    "SubType":"通所介護",
    "Name":"湖西市社協介護センターあらい",
    "TEL":"053-594-5000",
    "Add1":"静岡県湖西市",
    "Add2":"新居町浜名575",
    "url":"",
    "image":""
    }
  },
  {
    "type": "Feature",
    "geometry": {
       "type": "Point",
       "coordinates":  [ 137.532069,34.719233 ]
    },
    "properties": {
    "HID":1031,
    "Type":"介護施設",
    "SubType":"訪問介護",
    "Name":"湖西市社協介護センターこさい",
    "TEL":"053-575-3294",
    "Add1":"静岡県湖西市",
    "Add2":"古見1044 ",
    "url":"",
    "image":""
    }
  },
  {
    "type": "Feature",
    "geometry": {
       "type": "Point",
       "coordinates":  [ 137.532069,34.719233 ]
    },
    "properties": {
    "HID":1032,
    "Type":"介護施設",
    "SubType":"訪問入浴",
    "Name":"湖西市社協介護センターこさい",
    "TEL":"053-575-3294",
    "Add1":"静岡県湖西市",
    "Add2":"古見1044 ",
    "url":"",
    "image":""
    }
  },
  {
    "type": "Feature",
    "geometry": {
       "type": "Point",
       "coordinates":  [ 137.532069,34.719233 ]
    },
    "properties": {
    "HID":1033,
    "Type":"介護施設",
    "SubType":"訪問看護",
    "Name":"湖西市訪問看護ステーション",
    "TEL":"053-574-2940",
    "Add1":"静岡県湖西市",
    "Add2":"古見1044 ",
    "url":"",
    "image":""
    }
  },
  {
    "type": "Feature",
    "geometry": {
       "type": "Point",
       "coordinates":  [ 137.501267,34.71584 ]
    },
    "properties": {
    "HID":1034,
    "Type":"介護施設",
    "SubType":"ショートステイ",
    "Name":"光湖苑",
    "TEL":"053-577-4511",
    "Add1":"静岡県湖西市",
    "Add2":"新所岡崎梅田入会地17-20",
    "url":"",
    "image":""
    }
  },
  {
    "type": "Feature",
    "geometry": {
       "type": "Point",
       "coordinates":  [ 137.556735,34.712268 ]
    },
    "properties": {
    "HID":1035,
    "Type":"介護施設",
    "SubType":"通所介護",
    "Name":"高齢者自立支援センターねこの手",
    "TEL":"053-522-7773",
    "Add1":"静岡県湖西市",
    "Add2":"鷲津3085",
    "url":"",
    "image":""
    }
  },
  {
    "type": "Feature",
    "geometry": {
       "type": "Point",
       "coordinates":  [ 137.531259,34.71791 ]
    },
    "properties": {
    "HID":1036,
    "Type":"介護施設",
    "SubType":"訪問介護",
    "Name":"在宅介護センターアイケア湖西",
    "TEL":"053-574-3300",
    "Add1":"静岡県湖西市",
    "Add2":"吉美3270-5",
    "url":"",
    "image":""
    }
  },
  {
    "type": "Feature",
    "geometry": {
       "type": "Point",
       "coordinates":  [ 137.574975,34.689096 ]
    },
    "properties": {
    "HID":1037,
    "Type":"介護施設",
    "SubType":"福祉用具（貸与・販売）",
    "Name":"山口燃料",
    "TEL":"053-594-0208",
    "Add1":"静岡県湖西市",
    "Add2":"新居町新居520-1",
    "url":"",
    "image":""
    }
  },
  {
    "type": "Feature",
    "geometry": {
       "type": "Point",
       "coordinates":  [ 137.576253,34.686138 ]
    },
    "properties": {
    "HID":1038,
    "Type":"介護施設",
    "SubType":"ショートステイ",
    "Name":"燦光",
    "TEL":"053-594-5655",
    "Add1":"静岡県湖西市",
    "Add2":"新居町新居1800-1",
    "url":"",
    "image":""
    }
  },
  {
    "type": "Feature",
    "geometry": {
       "type": "Point",
       "coordinates":  [ 137.499483,34.738745 ]
    },
    "properties": {
    "HID":1039,
    "Type":"介護施設",
    "SubType":"福祉用具（貸与・販売）",
    "Name":"松井住設",
    "TEL":"053-578-0298",
    "Add1":"静岡県湖西市",
    "Add2":"神座411-2",
    "url":"",
    "image":""
    }
  },
  {
    "type": "Feature",
    "geometry": {
       "type": "Point",
       "coordinates":  [ 137.544869,34.703185 ]
    },
    "properties": {
    "HID":1040,
    "Type":"介護施設",
    "SubType":"福祉用具（貸与・販売）",
    "Name":"星医療酸器東海浜松営業所",
    "TEL":"053-574-3026",
    "Add1":"静岡県湖西市",
    "Add2":"鷲津2817",
    "url":"",
    "image":""
    }
  },
  {
    "type": "Feature",
    "geometry": {
       "type": "Point",
       "coordinates":  [ 137.557538,34.709824 ]
    },
    "properties": {
    "HID":1041,
    "Type":"介護施設",
    "SubType":"特別養護老人ホーム",
    "Name":"特別養護老人ホーム 恵翔苑",
    "TEL":"053-595-1111",
    "Add1":"静岡県湖西市",
    "Add2":"新居町中之郷3636-21",
    "url":"",
    "image":""
    }
  },
  {
    "type": "Feature",
    "geometry": {
       "type": "Point",
       "coordinates":  [ 137.510673,34.755366 ]
    },
    "properties": {
    "HID":1042,
    "Type":"介護施設",
    "SubType":"特別養護老人ホーム",
    "Name":"特別養護老人ホーム 湖西白萩",
    "TEL":"053-573-2000",
    "Add1":"静岡県湖西市",
    "Add2":"太田450-1",
    "url":"",
    "image":""
    }
  },
  {
    "type": "Feature",
    "geometry": {
       "type": "Point",
       "coordinates":  [ 137.501267,34.71584 ]
    },
    "properties": {
    "HID":1043,
    "Type":"介護施設",
    "SubType":"特別養護老人ホーム",
    "Name":"特別養護老人ホーム 光湖苑",
    "TEL":"053-577-4511",
    "Add1":"静岡県湖西市",
    "Add2":"新所岡崎梅田入会地17-20",
    "url":"",
    "image":""
    }
  },
  {
    "type": "Feature",
    "geometry": {
       "type": "Point",
       "coordinates":  [ 137.576253,34.686138 ]
    },
    "properties": {
    "HID":1044,
    "Type":"介護施設",
    "SubType":"特別養護老人ホーム",
    "Name":"特別養護老人ホーム 燦光",
    "TEL":"053-594-5655",
    "Add1":"静岡県湖西市",
    "Add2":"新居町新居1800-1",
    "url":"",
    "image":""
    }
  },
  {
    "type": "Feature",
    "geometry": {
       "type": "Point",
       "coordinates":  [ 137.523943,34.729536 ]
    },
    "properties": {
    "HID":1045,
    "Type":"介護施設",
    "SubType":"グループホーム",
    "Name":"日ノ岡グループホーム",
    "TEL":"053-573-2254",
    "Add1":"静岡県湖西市",
    "Add2":"岡崎2254-2",
    "url":"",
    "image":""
    }
  },
  {
    "type": "Feature",
    "geometry": {
       "type": "Point",
       "coordinates":  [ 137.523943,34.729536 ]
    },
    "properties": {
    "HID":1046,
    "Type":"介護施設",
    "SubType":"通所介護",
    "Name":"日ノ岡デイサービス",
    "TEL":"053-573-2252",
    "Add1":"静岡県湖西市",
    "Add2":"岡崎2254-2",
    "url":"",
    "image":""
    }
  },
  {
    "type": "Feature",
    "geometry": {
       "type": "Point",
       "coordinates":  [ 137.482735,34.728149 ]
    },
    "properties": {
    "HID":1047,
    "Type":"介護施設",
    "SubType":"通所介護",
    "Name":"浜名デイサービスセンターなでしこ",
    "TEL":"053-577-1105",
    "Add1":"静岡県湖西市",
    "Add2":"梅田490-1",
    "url":"",
    "image":""
    }
  },
  {
    "type": "Feature",
    "geometry": {
       "type": "Point",
       "coordinates":  [ 137.493451,34.723575 ]
    },
    "properties": {
    "HID":1048,
    "Type":"介護施設",
    "SubType":"ショートステイ",
    "Name":"浜名病院",
    "TEL":"053-577-2333",
    "Add1":"静岡県湖西市",
    "Add2":"新所岡崎梅田入会地15-70",
    "url":"",
    "image":""
    }
  },
  {
    "type": "Feature",
    "geometry": {
       "type": "Point",
       "coordinates":  [ 137.546222,34.719938 ]
    },
    "properties": {
    "HID":1049,
    "Type":"介護施設",
    "SubType":"通所介護",
    "Name":"風の杜デイサービス",
    "TEL":"053-574-2687",
    "Add1":"静岡県湖西市",
    "Add2":"鷲津2522-4",
    "url":"",
    "image":""
    }
  },
  {
    "type": "Feature",
    "geometry": {
       "type": "Point",
       "coordinates":  [ 137.493451,34.723575 ]
    },
    "properties": {
    "HID":1050,
    "Type":"介護施設",
    "SubType":"訪問看護",
    "Name":"訪問看護ステーションはまな",
    "TEL":"053-573-0333",
    "Add1":"静岡県湖西市",
    "Add2":"新所岡崎梅田入会地15-70",
    "url":"",
    "image":""
    }
  },
  {
    "type": "Feature",
    "geometry": {
       "type": "Point",
       "coordinates":  [ 137.501267,34.71584 ]
    },
    "properties": {
    "HID":1051,
    "Type":"介護施設",
    "SubType":"通所介護",
    "Name":"老人デイサービスセンター光湖苑",
    "TEL":"053-577-4511",
    "Add1":"静岡県湖西市",
    "Add2":"新所岡崎梅田入会地17-20",
    "url":"",
    "image":""
    }
  },
  {
    "type": "Feature",
    "geometry": {
       "type": "Point",
       "coordinates":  [ 137.501267,34.71584 ]
    },
    "properties": {
    "HID":1052,
    "Type":"介護施設",
    "SubType":"認知症対応型",
    "Name":"老人デイサービスセンター光湖苑",
    "TEL":"053-577-4511",
    "Add1":"静岡県湖西市",
    "Add2":"新所岡崎梅田入会地17-20",
    "url":"",
    "image":""
    }
  },
  {
    "type": "Feature",
    "geometry": {
       "type": "Point",
       "coordinates":  [ 137.558219,34.686673 ]
    },
    "properties": {
    "HID":1053,
    "Type":"介護施設",
    "SubType":"福祉用具（貸与・販売）",
    "Name":"暉サービス",
    "TEL":"053-595-1630",
    "Add1":"静岡県湖西市",
    "Add2":"新居町浜名828",
    "url":"",
    "image":""
    }
  },
  {
    "type": "Feature",
    "geometry": {
       "type": "Point",
       "coordinates":  [ 137.557538,34.709824 ]
    },
    "properties": {
    "HID":1054,
    "Type":"地域包括支援センター",
    "SubType":"",
    "Name":"湖西市地域包括支援センター 恵翔苑",
    "TEL":"053-595-1114",
    "Add1":"静岡県湖西市",
    "Add2":"新居町中之郷3636番地21",
    "url":"",
    "image":""
    }
  },
  {
    "type": "Feature",
    "geometry": {
       "type": "Point",
       "coordinates":  [ 137.510673,34.7553658 ]
    },
    "properties": {
    "HID":1055,
    "Type":"地域包括支援センター",
    "SubType":"",
    "Name":"湖西市地域包括支援センター 湖西白萩",
    "TEL":"053-573-2050",
    "Add1":"静岡県湖西市",
    "Add2":"太田450-1",
    "url":"",
    "image":""
    }
  },
  {
    "type": "Feature",
    "geometry": {
       "type": "Point",
       "coordinates":  [ 137.501267,34.71584 ]
    },
    "properties": {
    "HID":1056,
    "Type":"地域包括支援センター",
    "SubType":"",
    "Name":"湖西市地域包括支援センター 光湖園",
    "TEL":"053-577-5455",
    "Add1":"静岡県湖西市",
    "Add2":"新所岡崎梅田入会地17-20",
    "url":"",
    "image":""
    }
  },
  {
    "type": "Feature",
    "geometry": {
       "type": "Point",
       "coordinates":  [ 137.5762939453,34.6860164191 ]
    },
    "properties": {
    "HID":1057,
    "Type":"地域包括支援センター",
    "SubType":"",
    "Name":"湖西市地域包括支援センター 燦光",
    "TEL":"053-594-7474",
    "Add1":"静岡県湖西市",
    "Add2":"新居町新居1800-1",
    "url":"",
    "image":""
    }
  },
  {
    "type": "Feature",
    "geometry": {
       "type": "Point",
       "coordinates":  [ 137.487801,34.721619 ]
    },
    "properties": {
    "HID":1058,
    "Type":"地域の居場所",
    "SubType":"",
    "Name":"おしゃべりサロン",
    "TEL":"",
    "Add1":"静岡県湖西市",
    "Add2":"駅南２−３−１９",
    "url":"",
    "image":""
    }
  },
  {
    "type": "Feature",
    "geometry": {
       "type": "Point",
       "coordinates":  [ 137.548708,34.718722 ]
    },
    "properties": {
    "HID":1059,
    "Type":"地域の居場所",
    "SubType":"",
    "Name":"おしゃべり処三河屋",
    "TEL":"",
    "Add1":"静岡県湖西市",
    "Add2":"鷲津１４５９−１",
    "url":"",
    "image":""
    }
  },
  {
    "type": "Feature",
    "geometry": {
       "type": "Point",
       "coordinates":  [ 137.511846,34.732699 ]
    },
    "properties": {
    "HID":1060,
    "Type":"地域の居場所",
    "SubType":"",
    "Name":"すいすいクラブ",
    "TEL":"",
    "Add1":"静岡県湖西市",
    "Add2":"新所５６５０−４\n",
    "url":"",
    "image":""
    }
  },
  {
    "type": "Feature",
    "geometry": {
       "type": "Point",
       "coordinates":  [ 137.554254,34.714189 ]
    },
    "properties": {
    "HID":1061,
    "Type":"地域の居場所",
    "SubType":"",
    "Name":"スペースふれＩ",
    "TEL":"",
    "Add1":"静岡県湖西市",
    "Add2":"鷲津２９８８−２\n",
    "url":"",
    "image":""
    }
  },
  {
    "type": "Feature",
    "geometry": {
       "type": "Point",
       "coordinates":  [ 137.490645,34.723602 ]
    },
    "properties": {
    "HID":1062,
    "Type":"地域の居場所",
    "SubType":"",
    "Name":"にこにこデー",
    "TEL":"",
    "Add1":"静岡県湖西市",
    "Add2":"新所原東６−１０",
    "url":"",
    "image":""
    }
  },
  {
    "type": "Feature",
    "geometry": {
       "type": "Point",
       "coordinates":  [ 137.530566,34.752858 ]
    },
    "properties": {
    "HID":1063,
    "Type":"地域の居場所",
    "SubType":"",
    "Name":"ひだまりさろん",
    "TEL":"",
    "Add1":"静岡県湖西市",
    "Add2":"入出７５１\n",
    "url":"",
    "image":""
    }
  },
  {
    "type": "Feature",
    "geometry": {
       "type": "Point",
       "coordinates":  [ 137.535306,34.714613 ]
    },
    "properties": {
    "HID":1064,
    "Type":"地域の居場所",
    "SubType":"",
    "Name":"寄ってこ会",
    "TEL":"",
    "Add1":"静岡県湖西市",
    "Add2":"古見８９５−７",
    "url":"",
    "image":""
    }
  },
  {
    "type": "Feature",
    "geometry": {
       "type": "Point",
       "coordinates":  [ 137.559871,34.694025 ]
    },
    "properties": {
    "HID":1065,
    "Type":"地域の居場所",
    "SubType":"",
    "Name":"地域の茶の間",
    "TEL":"",
    "Add1":"静岡県湖西市",
    "Add2":"新居１１９０−３\n",
    "url":"",
    "image":""
    }
  },
  {
    "type": "Feature",
    "geometry": {
       "type": "Point",
       "coordinates":  [ 137.535242,34.734247 ]
    },
    "properties": {
    "HID":1066,
    "Type":"地域の居場所",
    "SubType":"",
    "Name":"陽だまりサークル",
    "TEL":"",
    "Add1":"静岡県湖西市",
    "Add2":"新所６０７９−７",
    "url":"",
    "image":""
    }
  },
  {
    "type": "Feature",
    "geometry": {
       "type": "Point",
       "coordinates":  [ 137.572931,34.689409 ]
    },
    "properties": {
    "HID":1067,
    "Type":"地域の居場所",
    "SubType":"",
    "Name":"鈴木さんち",
    "TEL":"",
    "Add1":"静岡県湖西市",
    "Add2":"新居３２−３\n",
    "url":"",
    "image":""
    }
  },
  {
    "type": "Feature",
    "geometry": {
       "type": "Point",
       "coordinates":  [ 137.5586657,34.6914142 ]
    },
    "properties": {
    "HID":1068,
    "Type":"歯科医院",
    "SubType":"",
    "Name":"あさくら歯科医院",
    "TEL":"053-594-7500",
    "Add1":"静岡県湖西市",
    "Add2":"新居町新居1602",
    "url":"",
    "image":""
    }
  },
  {
    "type": "Feature",
    "geometry": {
       "type": "Point",
       "coordinates":  [ 137.4919066,34.7183642 ]
    },
    "properties": {
    "HID":1069,
    "Type":"歯科医院",
    "SubType":"",
    "Name":"はる歯科クリニック",
    "TEL":"053-577-5666",
    "Add1":"静岡県湖西市",
    "Add2":"南台４丁目1-1",
    "url":"",
    "image":""
    }
  },
  {
    "type": "Feature",
    "geometry": {
       "type": "Point",
       "coordinates":  [ 137.5002126,34.6893675 ]
    },
    "properties": {
    "HID":1070,
    "Type":"歯科医院",
    "SubType":"",
    "Name":"伊藤歯科医院",
    "TEL":"053-579-0752",
    "Add1":"静岡県湖西市",
    "Add2":"白須賀３９０４",
    "url":"",
    "image":""
    }
  },
  {
    "type": "Feature",
    "geometry": {
       "type": "Point",
       "coordinates":  [ 137.5710478,34.6890232 ]
    },
    "properties": {
    "HID":1071,
    "Type":"歯科医院",
    "SubType":"",
    "Name":"遠藤歯科医院",
    "TEL":"053-594-6480",
    "Add1":"静岡県湖西市",
    "Add2":"新居町新居１００－３",
    "url":"",
    "image":""
    }
  },
  {
    "type": "Feature",
    "geometry": {
       "type": "Point",
       "coordinates":  [ 137.5434442,34.7130113 ]
    },
    "properties": {
    "HID":1072,
    "Type":"歯科医院",
    "SubType":"",
    "Name":"湖西歯科",
    "TEL":"053-575-0475",
    "Add1":"静岡県湖西市",
    "Add2":"鷲津７６０－２",
    "url":"",
    "image":""
    }
  },
  {
    "type": "Feature",
    "geometry": {
       "type": "Point",
       "coordinates":  [ 137.5477689,34.7104896 ]
    },
    "properties": {
    "HID":1073,
    "Type":"歯科医院",
    "SubType":"",
    "Name":"三田歯科医院",
    "TEL":"053-576-1711",
    "Add1":"静岡県湖西市",
    "Add2":"鷲津１１８８の１",
    "url":"",
    "image":""
    }
  },
  {
    "type": "Feature",
    "geometry": {
       "type": "Point",
       "coordinates":  [ 137.5335147,34.7185852 ]
    },
    "properties": {
    "HID":1074,
    "Type":"歯科医院",
    "SubType":"",
    "Name":"山村歯科医院",
    "TEL":"053-576-9555",
    "Add1":"静岡県湖西市",
    "Add2":"古見1034-7",
    "url":"",
    "image":""
    }
  },
  {
    "type": "Feature",
    "geometry": {
       "type": "Point",
       "coordinates":  [ 137.4855846,34.723855 ]
    },
    "properties": {
    "HID":1075,
    "Type":"歯科医院",
    "SubType":"",
    "Name":"山本歯科医院",
    "TEL":"053-577-3888",
    "Add1":"静岡県湖西市",
    "Add2":"新所原3-3-26",
    "url":"",
    "image":""
    }
  },
  {
    "type": "Feature",
    "geometry": {
       "type": "Point",
       "coordinates":  [ 137.5619153,34.6941725 ]
    },
    "properties": {
    "HID":1076,
    "Type":"歯科医院",
    "SubType":"",
    "Name":"歯科天陽堂柴田医院",
    "TEL":"053-594-0622",
    "Add1":"静岡県湖西市",
    "Add2":"新居町新居3354-1",
    "url":"",
    "image":""
    }
  },
  {
    "type": "Feature",
    "geometry": {
       "type": "Point",
       "coordinates":  [ 137.5509823,34.7179915 ]
    },
    "properties": {
    "HID":1077,
    "Type":"歯科医院",
    "SubType":"",
    "Name":"柴田歯科医院",
    "TEL":"053-576-4012",
    "Add1":"静岡県湖西市",
    "Add2":"鷲津１８８１－３",
    "url":"",
    "image":""
    }
  },
  {
    "type": "Feature",
    "geometry": {
       "type": "Point",
       "coordinates":  [ 137.5607124,34.7008914 ]
    },
    "properties": {
    "HID":1078,
    "Type":"歯科医院",
    "SubType":"",
    "Name":"守吉歯科医院",
    "TEL":"053-594-3360",
    "Add1":"静岡県湖西市",
    "Add2":"新居町中之郷173-1",
    "url":"",
    "image":""
    }
  },
  {
    "type": "Feature",
    "geometry": {
       "type": "Point",
       "coordinates":  [ 137.5424414,34.7165829 ]
    },
    "properties": {
    "HID":1079,
    "Type":"歯科医院",
    "SubType":"",
    "Name":"小野田歯科医院",
    "TEL":"053-576-0201",
    "Add1":"静岡県湖西市",
    "Add2":"鷲津716-10",
    "url":"",
    "image":""
    }
  },
  {
    "type": "Feature",
    "geometry": {
       "type": "Point",
       "coordinates":  [ 137.4864236,34.7204665 ]
    },
    "properties": {
    "HID":1080,
    "Type":"歯科医院",
    "SubType":"",
    "Name":"小林歯科医院",
    "TEL":"053-577-1484",
    "Add1":"静岡県湖西市",
    "Add2":"駅南２－１４－９",
    "url":"",
    "image":""
    }
  },
  {
    "type": "Feature",
    "geometry": {
       "type": "Point",
       "coordinates":  [ 137.5340088,34.7173074 ]
    },
    "properties": {
    "HID":1081,
    "Type":"歯科医院",
    "SubType":"",
    "Name":"神谷歯科医院",
    "TEL":"053-576-3331",
    "Add1":"静岡県湖西市",
    "Add2":"古見994-6",
    "url":"",
    "image":""
    }
  },
  {
    "type": "Feature",
    "geometry": {
       "type": "Point",
       "coordinates":  [ 137.542858,34.7174051 ]
    },
    "properties": {
    "HID":1082,
    "Type":"歯科医院",
    "SubType":"",
    "Name":"鳥居歯科医院",
    "TEL":"053-576-0133",
    "Add1":"静岡県湖西市",
    "Add2":"鷲津５３８",
    "url":"",
    "image":""
    }
  },
  {
    "type": "Feature",
    "geometry": {
       "type": "Point",
       "coordinates":  [ 137.5614237,34.6938086 ]
    },
    "properties": {
    "HID":1083,
    "Type":"歯科医院",
    "SubType":"",
    "Name":"鳥居歯科医院（新居）",
    "TEL":"053-594-0651",
    "Add1":"静岡県湖西市",
    "Add2":"新居町新居１２１５",
    "url":"",
    "image":""
    }
  },
  {
    "type": "Feature",
    "geometry": {
       "type": "Point",
       "coordinates":  [ 137.4871843,34.725341 ]
    },
    "properties": {
    "HID":1084,
    "Type":"歯科医院",
    "SubType":"",
    "Name":"尾崎歯科医院",
    "TEL":"053-577-1028",
    "Add1":"静岡県湖西市",
    "Add2":"新所原2-8-1",
    "url":"",
    "image":""
    }
  },
  {
    "type": "Feature",
    "geometry": {
       "type": "Point",
       "coordinates":  [ 137.5148768,34.7414896 ]
    },
    "properties": {
    "HID":1085,
    "Type":"歯科医院",
    "SubType":"",
    "Name":"福井歯科医院",
    "TEL":"053-578-2815",
    "Add1":"静岡県湖西市",
    "Add2":"大田字前田811-1",
    "url":"",
    "image":""
    }
  },
  {
    "type": "Feature",
    "geometry": {
       "type": "Point",
       "coordinates":  [ 137.5064996,34.7254804 ]
    },
    "properties": {
    "HID":1086,
    "Type":"歯科医院",
    "SubType":"",
    "Name":"北原歯科医院",
    "TEL":"053-577-4118",
    "Add1":"静岡県湖西市",
    "Add2":"岡崎６１０－３",
    "url":"",
    "image":""
    }
  },
  {
    "type": "Feature",
    "geometry": {
       "type": "Point",
       "coordinates":  [ 137.5460219,34.7093008 ]
    },
    "properties": {
    "HID":1087,
    "Type":"歯科医院",
    "SubType":"",
    "Name":"礪波歯科医院",
    "TEL":"053-576-2068",
    "Add1":"静岡県湖西市",
    "Add2":"鷲津３４３８",
    "url":"",
    "image":""
    }
  },
  {
    "type": "Feature",
    "geometry": {
       "type": "Point",
       "coordinates":  [ 137.564096,34.688879 ]
    },
    "properties": {
    "HID":1088,
    "Type":"医院",
    "SubType":"",
    "Name":"あらい眼科",
    "TEL":"053-594-7104",
    "Add1":"静岡県湖西市",
    "Add2":"新居町浜名２０５-１",
    "url":"",
    "image":""
    }
  },
  {
    "type": "Feature",
    "geometry": {
       "type": "Point",
       "coordinates":  [ 137.541611,34.715816 ]
    },
    "properties": {
    "HID":1089,
    "Type":"医院",
    "SubType":"",
    "Name":"ありき眼科",
    "TEL":"053-576-0053",
    "Add1":"静岡県湖西市",
    "Add2":"鷲津５７２-１",
    "url":"",
    "image":""
    }
  },
  {
    "type": "Feature",
    "geometry": {
       "type": "Point",
       "coordinates":  [ 137.501086,34.723369 ]
    },
    "properties": {
    "HID":1090,
    "Type":"医院",
    "SubType":"",
    "Name":"いしはま医院",
    "TEL":"053-573-0101",
    "Add1":"静岡県湖西市",
    "Add2":"岡崎８８２-４９",
    "url":"",
    "image":""
    }
  },
  {
    "type": "Feature",
    "geometry": {
       "type": "Point",
       "coordinates":  [ 137.548297,34.711126 ]
    },
    "properties": {
    "HID":1091,
    "Type":"医院",
    "SubType":"",
    "Name":"きもと小児科",
    "TEL":"053-576-1938",
    "Add1":"静岡県湖西市",
    "Add2":"鷲津１１９１-１",
    "url":"",
    "image":""
    }
  },
  {
    "type": "Feature",
    "geometry": {
       "type": "Point",
       "coordinates":  [ 137.555613,34.709571 ]
    },
    "properties": {
    "HID":1092,
    "Type":"医院",
    "SubType":"",
    "Name":"クリニック井田",
    "TEL":"053-595-1188",
    "Add1":"静岡県湖西市",
    "Add2":"新居町中之郷３６３６-２０",
    "url":"",
    "image":""
    }
  },
  {
    "type": "Feature",
    "geometry": {
       "type": "Point",
       "coordinates":  [ 137.536445,34.714069 ]
    },
    "properties": {
    "HID":1093,
    "Type":"医院",
    "SubType":"",
    "Name":"こいで整形外科・皮膚科",
    "TEL":"053-575-1080",
    "Add1":"静岡県湖西市",
    "Add2":"古見８６１-１",
    "url":"",
    "image":""
    }
  },
  {
    "type": "Feature",
    "geometry": {
       "type": "Point",
       "coordinates":  [ 137.554604,34.708557 ]
    },
    "properties": {
    "HID":1094,
    "Type":"医院",
    "SubType":"",
    "Name":"すずき整形外科",
    "TEL":"053-594-7277",
    "Add1":"静岡県湖西市",
    "Add2":"新居町中之郷３６３６-１１",
    "url":"",
    "image":""
    }
  },
  {
    "type": "Feature",
    "geometry": {
       "type": "Point",
       "coordinates":  [ 137.536956,34.713505 ]
    },
    "properties": {
    "HID":1095,
    "Type":"医院",
    "SubType":"",
    "Name":"なかしま内科",
    "TEL":"053-574-3317",
    "Add1":"静岡県湖西市",
    "Add2":"古見８６２-５",
    "url":"",
    "image":""
    }
  },
  {
    "type": "Feature",
    "geometry": {
       "type": "Point",
       "coordinates":  [ 137.490532,34.719034 ]
    },
    "properties": {
    "HID":1096,
    "Type":"医院",
    "SubType":"",
    "Name":"なかむらクリニック",
    "TEL":"053-577-5554",
    "Add1":"静岡県湖西市",
    "Add2":"駅南１丁目５-６",
    "url":"",
    "image":""
    }
  },
  {
    "type": "Feature",
    "geometry": {
       "type": "Point",
       "coordinates":  [ 137.539223,34.707062 ]
    },
    "properties": {
    "HID":1097,
    "Type":"医院",
    "SubType":"",
    "Name":"はやし耳鼻咽喉科医院",
    "TEL":"053-574-2315",
    "Add1":"静岡県湖西市",
    "Add2":"古見６７１-１",
    "url":"",
    "image":""
    }
  },
  {
    "type": "Feature",
    "geometry": {
       "type": "Point",
       "coordinates":  [ 137.572298,34.688843 ]
    },
    "properties": {
    "HID":1098,
    "Type":"医院",
    "SubType":"",
    "Name":"みなとクリニック",
    "TEL":"053-595-0780",
    "Add1":"静岡県湖西市",
    "Add2":"新居町新居４８６-１",
    "url":"",
    "image":""
    }
  },
  {
    "type": "Feature",
    "geometry": {
       "type": "Point",
       "coordinates":  [ 137.569412,34.685771 ]
    },
    "properties": {
    "HID":1099,
    "Type":"医院",
    "SubType":"",
    "Name":"安達産婦人科小児科医院",
    "TEL":"053-594-3555",
    "Add1":"静岡県湖西市",
    "Add2":"新居町新居２０９７-１",
    "url":"",
    "image":""
    }
  },
  {
    "type": "Feature",
    "geometry": {
       "type": "Point",
       "coordinates":  [ 137.528161,34.74927 ]
    },
    "properties": {
    "HID":1100,
    "Type":"医院",
    "SubType":"",
    "Name":"伊藤医院",
    "TEL":"053-578-0658",
    "Add1":"静岡県湖西市",
    "Add2":"入出５０５",
    "url":"",
    "image":""
    }
  },
  {
    "type": "Feature",
    "geometry": {
       "type": "Point",
       "coordinates":  [ 137.564818,34.69385 ]
    },
    "properties": {
    "HID":1101,
    "Type":"医院",
    "SubType":"",
    "Name":"医療法人社団　あらい青葉クリニック",
    "TEL":"053-594-0044",
    "Add1":"静岡県湖西市",
    "Add2":"新居町新居３３６０-２",
    "url":"",
    "image":""
    }
  },
  {
    "type": "Feature",
    "geometry": {
       "type": "Point",
       "coordinates":  [ 137.542705,34.712475 ]
    },
    "properties": {
    "HID":1102,
    "Type":"医院",
    "SubType":"",
    "Name":"牛田クリニック",
    "TEL":"053-574-2252",
    "Add1":"静岡県湖西市",
    "Add2":"鷲津７８６-１",
    "url":"",
    "image":""
    }
  },
  {
    "type": "Feature",
    "geometry": {
       "type": "Point",
       "coordinates":  [ 137.484752,34.719794 ]
    },
    "properties": {
    "HID":1103,
    "Type":"医院",
    "SubType":"",
    "Name":"後藤内科医院",
    "TEL":"053-572-3292",
    "Add1":"静岡県湖西市",
    "Add2":"駅南４丁目２－３３",
    "url":"",
    "image":""
    }
  },
  {
    "type": "Feature",
    "geometry": {
       "type": "Point",
       "coordinates":  [ 137.548952,34.712503 ]
    },
    "properties": {
    "HID":1104,
    "Type":"医院",
    "SubType":"",
    "Name":"市立湖西病院",
    "TEL":"053-576-1231",
    "Add1":"静岡県湖西市",
    "Add2":"鷲津２２５９-１",
    "url":"",
    "image":""
    }
  },
  {
    "type": "Feature",
    "geometry": {
       "type": "Point",
       "coordinates":  [ 137.486193,34.724888 ]
    },
    "properties": {
    "HID":1105,
    "Type":"医院",
    "SubType":"",
    "Name":"新所原医院",
    "TEL":"053-577-0112",
    "Add1":"静岡県湖西市",
    "Add2":"新所原2‐5‐26",
    "url":"",
    "image":""
    }
  },
  {
    "type": "Feature",
    "geometry": {
       "type": "Point",
       "coordinates":  [ 137.561693,34.693936 ]
    },
    "properties": {
    "HID":1106,
    "Type":"医院",
    "SubType":"",
    "Name":"新村医院",
    "TEL":"053-594-0080",
    "Add1":"静岡県湖西市",
    "Add2":"新居町新居３３５４-２７",
    "url":"",
    "image":""
    }
  },
  {
    "type": "Feature",
    "geometry": {
       "type": "Point",
       "coordinates":  [ 137.522473,34.730475 ]
    },
    "properties": {
    "HID":1107,
    "Type":"医院",
    "SubType":"",
    "Name":"榛名医院",
    "TEL":"053-578-1092",
    "Add1":"静岡県湖西市",
    "Add2":"新所４０１４",
    "url":"",
    "image":""
    }
  },
  {
    "type": "Feature",
    "geometry": {
       "type": "Point",
       "coordinates":  [ 137.54035,34.709675 ]
    },
    "properties": {
    "HID":1108,
    "Type":"医院",
    "SubType":"",
    "Name":"西遠皮膚科ｱﾚﾙｷﾞｰクリニック",
    "TEL":"053-574-3741",
    "Add1":"静岡県湖西市",
    "Add2":"鷲津３３１８-１",
    "url":"",
    "image":""
    }
  },
  {
    "type": "Feature",
    "geometry": {
       "type": "Point",
       "coordinates":  [ 137.505691,34.723581 ]
    },
    "properties": {
    "HID":1109,
    "Type":"医院",
    "SubType":"",
    "Name":"川口整形外科",
    "TEL":"053-573-3737",
    "Add1":"静岡県湖西市",
    "Add2":"岡崎２５８６-３８",
    "url":"",
    "image":""
    }
  },
  {
    "type": "Feature",
    "geometry": {
       "type": "Point",
       "coordinates":  [ 137.564235,34.689384 ]
    },
    "properties": {
    "HID":1110,
    "Type":"医院",
    "SubType":"",
    "Name":"大久保小児科内科クリニック",
    "TEL":"053-594-7311",
    "Add1":"静岡県湖西市",
    "Add2":"新居町浜名１６８-７",
    "url":"",
    "image":""
    }
  },
  {
    "type": "Feature",
    "geometry": {
       "type": "Point",
       "coordinates":  [ 137.543905,34.714867 ]
    },
    "properties": {
    "HID":1111,
    "Type":"医院",
    "SubType":"",
    "Name":"長尾クリニック",
    "TEL":"053-574-3222",
    "Add1":"静岡県湖西市",
    "Add2":"鷲津７４０-１",
    "url":"",
    "image":""
    }
  },
  {
    "type": "Feature",
    "geometry": {
       "type": "Point",
       "coordinates":  [ 137.559382,34.695478 ]
    },
    "properties": {
    "HID":1112,
    "Type":"医院",
    "SubType":"",
    "Name":"疋田クリニック",
    "TEL":"053-594-8222",
    "Add1":"静岡県湖西市",
    "Add2":"新居町新居１３２３－５",
    "url":"",
    "image":""
    }
  },
  {
    "type": "Feature",
    "geometry": {
       "type": "Point",
       "coordinates":  [ 137.493451,34.723575 ]
    },
    "properties": {
    "HID":1113,
    "Type":"医院",
    "SubType":"",
    "Name":"浜名病院",
    "TEL":"053-577-2333",
    "Add1":"静岡県湖西市",
    "Add2":"入会地１５-７０",
    "url":"",
    "image":""
    }
  },
  {
    "type": "Feature",
    "geometry": {
       "type": "Point",
       "coordinates":  [ 137.508804,34.754971 ]
    },
    "properties": {
    "HID":1114,
    "Type":"医院",
    "SubType":"",
    "Name":"野里医院",
    "TEL":"053-578-1107",
    "Add1":"静岡県湖西市",
    "Add2":"大知波５４２-４",
    "url":"",
    "image":""
    }
  }
]
}